     3.03           OBSERVATION DATA    M: Mixed            RINEX VERSION / TYPE
RTKCONV 2.4.3 b31                       20220214 033837 UTC PGM / RUN BY / DATE 
log: C:\Users\PNL_LAB_Experiment\Desktop\211011\COM8_22021  COMMENT             
format: u-blox                                              COMMENT             
                                                            MARKER NAME         
                                                            MARKER NUMBER       
                                                            MARKER TYPE         
                                                            OBSERVER / AGENCY   
                                                            REC # / TYPE / VERS 
                                                            ANT # / TYPE        
 -2932339.4135  5922694.0968  3594435.0499                  APPROX POSITION XYZ 
        0.0000        0.0000        0.0000                  ANTENNA: DELTA H/E/N
G    4 C1C L1C D1C S1C                                      SYS / # / OBS TYPES 
R    4 C1C L1C D1C S1C                                      SYS / # / OBS TYPES 
E    4 C1C L1C D1C S1C                                      SYS / # / OBS TYPES 
J    4 C1C L1C D1C S1C                                      SYS / # / OBS TYPES 
S    4 C1C L1C D1C S1C                                      SYS / # / OBS TYPES 
C    4 C2I L2I D2I S2I                                      SYS / # / OBS TYPES 
  2022     2    14     0     0   48.0030000     GPS         TIME OF FIRST OBS   
  2022     2    14     0     3   25.0000000     GPS         TIME OF LAST OBS    
G                                                           SYS / PHASE SHIFT   
R                                                           SYS / PHASE SHIFT   
E                                                           SYS / PHASE SHIFT   
J                                                           SYS / PHASE SHIFT   
S                                                           SYS / PHASE SHIFT   
C                                                           SYS / PHASE SHIFT   
  0                                                         GLONASS SLOT / FRQ #
 C1C    0.000 C1P    0.000 C2C    0.000 C2P    0.000        GLONASS COD/PHS/BIS 
                                                            END OF HEADER       
> 2022  2 14  0  0 48.0030000  0  7                     
G25  21492820.364   112945542.2511     -12350.343          49.000  
G32  22836081.234   120004417.3971     -11441.671          49.000  
G10  21014277.739   110430770.8911     -12703.997          49.000  
G12  23435594.354   123154874.4361     -14478.815          48.000  
G26  25430281.945   133637029.5131      -9064.718          44.000  
G22  23788971.134   125011883.3961     -11363.914          48.000  
G21  26614150.455   139858299.9951     -12095.714          44.000  
> 2022  2 14  0  0 49.0030000  0  7                     
G25  21495170.588   112957890.988      -12343.883          49.000  
G32  22838258.009   120015857.011      -11434.265          49.000  
G10  21016694.926   110443473.188      -12698.076          49.000  
G12  23438349.308   123169351.516      -14472.005          48.000  
G26  25432006.418   133646092.002       -9056.965          44.000  
G22  23791133.240   125023245.226      -11356.502          48.000  
G21  26616451.844   139870393.870      -12088.707          44.000  
> 2022  2 14  0  0 50.0030000  0  7                     
G25  21497520.131   112970237.519      -12349.271          49.000  
G32  22840434.480   120027293.755      -11439.065          49.000  
G10  21019111.704   110456173.224      -12703.147          49.000  
G12  23441103.854   123183826.318      -14477.471          48.000  
G26  25433730.417   133655151.600       -9061.949          44.000  
G22  23793294.842   125034604.116      -11361.179          48.000  
G21  26618752.728   139882485.246      -12093.847          44.000  
> 2022  2 14  0  0 51.0030000  0  7                     
G25  21499869.135   112982586.578      -12350.402          49.000  
G32  22842611.375   120038732.353      -11439.594          49.000  
G10  21021528.941   110468875.746      -12704.310          49.000  
G12  23443858.883   123198303.562      -14478.552          48.000  
G26  25435454.803   133664213.018       -9062.390          44.000  
G22  23795456.702   125045964.795      -11361.793          48.000  
G21  26621054.113   139894578.847      -12094.615          44.000  
> 2022  2 14  0  0 52.0030000  0  7                     
G25  21502219.734   112994936.141      -12346.544          49.000  
G32  22844787.865   120050170.772      -11435.001          49.000  
G10  21023946.258   110481578.738      -12700.820          50.000  
G12  23446613.932   123212781.225      -14474.573          48.000  
G26  25437179.150   133673274.224       -9057.863          45.000  
G22  23797618.625   125057325.225      -11357.106          48.000  
G21  26623355.519   139906672.676      -12090.629          44.000  
> 2022  2 14  0  0 53.0030000  0  7                     
G25  21504569.854   113007284.398      -12350.150          49.000  
G32  22846964.192   120061607.213      -11438.012          49.000  
G10  21026363.335   110494280.354      -12703.324          49.000  
G12  23449368.743   123227257.498      -14478.188          48.000  
G26  25438903.032   133682333.395       -9060.688          44.000  
G22  23799780.117   125068683.604      -11359.955          48.000  
G21  26625656.609   139918764.884      -12093.904          44.000  
> 2022  2 14  0  0 54.0030000  0  7                     
G25  21506920.546   113019635.103      -12350.810          49.000  
G32  22849140.623   120073045.424      -11438.041          49.000  
G10  21028780.883   110506984.424      -12704.420          49.000  
G12  23452124.017   123241736.131      -14478.725          48.000  
G26  25440627.292   133691394.330       -9060.850          44.000  
G22  23801941.959   125080043.684      -11359.847          48.000  
G21  26627958.106   139930859.253      -12094.394          44.000  
> 2022  2 14  0  0 55.0030000  0  7                     
G25  21509269.914   113031986.250      -12350.437          49.000  
G32  22851317.230   120084483.390      -11437.093          49.000  
G10  21031198.492   110519688.862      -12703.705          49.000  
G12  23454879.306   123256215.119      -14478.311          48.000  
G26  25442351.487   133700454.948       -9059.660          44.000  
G22  23804103.682   125091403.465      -11358.826          48.000  
G21  26630259.624   139942953.757      -12093.694          44.000  
> 2022  2 14  0  0 56.0030000  0  7                     
G25  21511620.089   113044337.639      -12348.195          49.000  
G32  22853493.720   120095920.920      -11433.995          49.000  
G10  21033616.144   110532393.537      -12702.094          49.000  
G12  23457634.589   123270694.270      -14476.034          48.000  
G26  25444075.607   133709515.116       -9056.706          44.000  
G22  23806265.304   125102762.745      -11355.889          48.000  
G21  26632561.155   139955048.210      -12091.261          44.000  
> 2022  2 14  0  0 57.0030000  0  7                     
G25  21513970.055   113056687.203      -12351.295          49.000  
G32  22855669.618   120107355.958      -11436.530          49.000  
G10  21036033.456   110545096.311      -12704.124          49.000  
G12  23460389.593   123285171.506      -14479.041          48.000  
G26  25445799.210   133718572.742       -9059.249          43.000  
G22  23808426.426   125114119.453      -11358.188          48.000  
G21  26634862.284   139967140.532      -12093.879          44.000  
> 2022  2 14  0  0 58.0030000  0  7                     
G25  21516320.362   113069038.091      -12351.707          49.000  
G32  22857845.697   120118791.627      -11436.049          49.000  
G10  21038450.988   110557800.399      -12704.853          49.000  
G12  23463144.838   123299649.973      -14479.178          48.000  
G26  25447522.946   133727630.974       -9058.675          44.000  
G22  23810587.706   125125476.716      -11357.367          48.000  
G21  26637163.601   139979233.885      -12093.955          44.000  
> 2022  2 14  0  0 59.0030000  0  7                     
G25  21518670.852   113081389.800      -12352.469          49.000  
G32  22860021.921   120130227.447      -11436.159          49.000  
G10  21040868.679   110570505.277      -12705.793          49.000  
G12  23465900.236   123314129.180      -14479.755          48.000  
G26  25449246.725   133736689.317       -9058.438          44.000  
G22  23812748.918   125136834.085      -11357.584          48.000  
G21  26639464.940   139991327.762      -12094.431          44.000  
> 2022  2 14  0  1  0.0030000  0  7                     
G25  21521020.920   113093741.727      -12352.351          49.000  
G32  22862198.045   120141662.810      -11435.337          49.000  
G10  21043286.400   110583210.291      -12704.968          49.000  
G12  23468655.606   123328608.526      -14479.583          48.000  
G26  25450970.354   133745747.164       -9057.701          44.000  
G22  23814910.104   125148190.915      -11356.726          48.000  
G21  26641766.388   140003421.561      -12094.001          44.000  
> 2022  2 14  0  1  1.0030000  0  7                     
G25  21523371.335   113106094.446      -12355.272          49.000  
G32  22864374.091   120153098.292      -11437.771          49.000  
G10  21045704.272   110595916.100      -12708.258          49.000  
G12  23471411.186   123343088.580      -14482.560          48.000  
G26  25452694.147   133754805.100       -9059.977          44.000  
G22  23817071.265   125159547.796      -11358.976          48.000  
G21  26644067.850   140015515.849      -12096.578          44.000  
> 2022  2 14  0  1  2.0030000  0  7                     
G25  21525722.140   113118447.659      -12353.062          49.000  
G32  22866550.094   120164533.588      -11434.795          49.000  
G10  21048122.210   110608622.354      -12705.637          49.000  
G12  23474166.777   123357569.042      -14480.198          48.000  
G26  25454417.779   133763862.804       -9057.329          44.000  
G22  23819232.381   125170904.449      -11356.038          48.000  
G21  26646369.286   140027610.347      -12094.128          44.000  
> 2022  2 14  0  1  3.0030000  0  7                     
G25  21528073.406   113130800.984      -12353.790          49.000  
G32  22868725.935   120175968.307      -11434.616          49.000  
G10  21050540.167   110621328.693      -12706.461          49.000  
G12  23476922.420   123372049.522      -14480.683          48.000  
G26  25456141.303   133772919.920       -9057.078          44.000  
G22  23821393.333   125182260.429      -11355.672          48.000  
G21  26648670.740   140039704.642      -12094.397          44.000  
> 2022  2 14  0  1  4.0030000  0  7                     
G25  21530424.281   113143153.879      -12353.242          49.000  
G32  22870901.710   120187401.930      -11433.652          49.000  
G10  21052958.052   110634034.545      -12705.878          49.000  
G12  23479677.957   123386529.492      -14480.263          48.000  
G26  25457864.586   133781975.876       -9055.732          44.000  
G22  23823554.099   125193615.258      -11354.656          48.000  
G21  26650972.170   140051798.214      -12093.621          44.000  
> 2022  2 14  0  1  5.0030000  0  7                     
G25  21532774.885   113155507.359      -12354.578          49.000  
G32  22873077.257   120198835.445      -11434.265          49.000  
G10  21055376.065   110646740.964      -12707.725          49.000  
G12  23482433.552   123401009.953      -14481.541          48.000  
G26  25459587.853   133791031.720       -9056.863          44.000  
G22  23825714.824   125204969.917      -11355.516          48.000  
G21  26653273.525   140063892.075      -12094.942          44.000  
> 2022  2 14  0  1  6.0030000  0  7                     
G25  21535124.972   113167860.921      -12351.540          49.000  
G32  22875253.093   120210268.382      -11430.422          49.000  
G10  21057794.054   110659447.415      -12704.474          49.000  
G12  23485189.200   123415490.426      -14478.315          48.000  
G26  25461311.020   133800086.910       -9052.695          44.000  
G22  23827875.444   125216323.919      -11351.279          48.000  
G21  26655574.839   140075985.727      -12091.278          44.000  
> 2022  2 14  0  1  7.0030000  0  7                     
G25  21537475.901   113180213.937      -12356.125          49.000  
G32  22877428.401   120221700.085      -11434.471          49.000  
G10  21060211.938   110672153.273      -12708.741          49.000  
G12  23487944.730   123429970.252      -14482.923          48.000  
G26  25463033.953   133809140.865       -9056.846          44.000  
G22  23830035.794   125227676.620      -11355.423          48.000  
G21  26657876.038   140088078.519      -12095.589          44.000  
> 2022  2 14  0  1  8.0030000  0  7                     
G25  21539827.083   113192569.150      -12354.896          49.000  
G32  22879603.969   120233133.308      -11432.393          49.000  
G10  21062630.229   110684861.291      -12707.760          49.000  
G12  23490700.560   123444452.195      -14481.505          48.000  
G26  25464757.071   133818196.279       -9054.539          44.000  
G22  23832196.456   125239030.776      -11353.353          48.000  
G21  26660177.578   140100173.224      -12094.084          44.000  
> 2022  2 14  0  1  9.0030000  0  7                     
G25  21542179.158   113204925.075      -12356.255          49.000  
G32  22881779.523   120244566.572      -11433.215          49.000  
G10  21065048.660   110697569.987      -12709.093          49.000  
G12  23493456.518   123458934.765      -14482.846          48.000  
G26  25466480.299   133827251.714       -9055.481          44.000  
G22  23834357.028   125250384.918      -11354.199          48.000  
G21  26662479.245   140112268.341      -12095.240          44.000  
> 2022  2 14  0  1 10.0030000  0  7                     
G25  21544529.733   113217278.702      -12352.852          49.000  
G32  22883954.814   120255996.856      -11429.196          49.000  
G10  21067466.628   110710276.346      -12705.300          49.000  
G12  23496212.023   123473414.949      -14479.327          48.000  
G26  25468202.949   133836304.124       -9051.278          44.000  
G22  23836517.066   125261735.990      -11349.938          48.000  
G21  26664780.419   140124360.859      -12091.603          44.000  
> 2022  2 14  0  1 11.0030000  0  7                     
G25  21546880.667   113229630.982      -12353.271          49.000  
G32  22886129.725   120267425.112      -11428.758          49.000  
G10  21069884.342   110722981.331      -12706.153          49.000  
G12  23498967.344   123487893.693      -14479.482          48.000  
G26  25469925.129   133845354.476       -9050.952          44.000  
G22  23838676.665   125273084.973      -11349.401          48.000  
G21  26667081.231   140136451.728      -12091.613          44.000  
> 2022  2 14  0  1 12.0030000  0  7                     
G25  21549231.604   113241985.737      -12354.915          49.000  
G32  22888304.655   120278855.167      -11429.830          49.000  
G10  21072302.527   110735688.714      -12707.368          49.000  
G12  23501723.162   123502374.832      -14481.121          48.000  
G26  25471647.614   133854406.599       -9052.094          44.000  
G22  23840836.687   125284435.689      -11350.329          48.000  
G21  26669382.475   140148544.768      -12092.915          44.000  
> 2022  2 14  0  1 13.0030000  0  7                     
G25  21551582.829   113254341.120      -12356.497          49.000  
G32  22890479.461   120290285.182      -11430.959          49.000  
G10  21074720.810   110748396.729      -12709.030          49.000  
G12  23504479.011   123516856.526      -14482.975          48.000  
G26  25473370.160   133863458.627       -9052.966          44.000  
G22  23842996.676   125295786.313      -11351.514          48.000  
G21  26671683.769   140160638.158      -12094.566          44.000  
> 2022  2 14  0  1 14.0030000  0  7                     
G25  21553933.716   113266695.553      -12352.110          49.000  
G32  22892654.334   120301713.553      -11425.740          49.000  
G10  21077138.889   110761103.728      -12704.093          49.000  
G12  23507234.575   123531337.160      -14478.341          48.000  
G26  25475092.437   133872508.989       -9047.796          44.000  
G22  23845156.304   125307135.194      -11346.109          48.000  
G21  26673984.881   140172730.280      -12089.627          44.000  
> 2022  2 14  0  1 15.0030000  0  7                     
G25  21556284.719   113279048.658      -12353.807          49.000  
G32  22894828.560   120313139.929      -11426.755          49.000  
G10  21079556.735   110773809.397      -12706.228          49.000  
G12  23509989.927   123545816.390      -14479.907          48.000  
G26  25476814.353   133881557.308       -9048.555          44.000  
G22  23847315.578   125318482.041      -11347.211          48.000  
G21  26676285.626   140184820.788      -12091.250          44.000  
> 2022  2 14  0  1 16.0030000  0  7                     
G25  21558636.074   113291403.108      -12356.115          49.000  
G32  22897003.051   120324566.960      -11428.198          49.000  
G10  21081974.831   110786516.355      -12708.854          49.000  
G12  23512745.513   123560296.872      -14482.001          48.000  
G26  25478536.368   133890606.264       -9050.118          44.000  
G22  23849474.968   125329829.465      -11348.655          48.000  
G21  26678586.616   140196912.326      -12092.945          44.000  
> 2022  2 14  0  1 17.0030000  0  7                     
G25  21560987.123   113303757.616      -12354.104          49.000  
G32  22899177.655   120335993.386      -11425.712          49.000  
G10  21084392.914   110799223.319      -12706.856          49.000  
G12  23515501.180   123574777.333      -14480.037          48.000  
G26  25480258.197   133899654.572       -9047.500          44.000  
G22  23851634.224   125341176.211      -11345.856          48.000  
G21  26680887.485   140209003.643      -12090.786          44.000  
> 2022  2 14  0  1 18.0030000  0  7                     
G25  21563338.320   113316113.073      -12355.201          49.000  
G32  22901352.107   120347420.073      -11426.052          49.000  
G10  21086811.173   110811931.173      -12707.372          49.000  
G12  23518256.942   123589258.655      -14481.062          48.000  
G26  25481980.065   133908703.109       -9047.945          44.000  
G22  23853793.544   125352523.166      -11346.390          48.000  
G21  26683188.533   140221095.612      -12091.589          44.000  
> 2022  2 14  0  1 19.0030000  0  7                     
G25  21565690.170   113328469.588      -12357.983          49.000  
G32  22903526.379   120358847.148      -11428.333          49.000  
G10  21089229.649   110824640.097      -12710.374          49.000  
G12  23521012.902   123603740.945      -14483.812          48.000  
G26  25483702.056   133917751.991       -9049.957          44.000  
G22  23855952.933   125363870.424      -11348.459          48.000  
G21  26685489.754   140233188.319      -12094.107          44.000  
> 2022  2 14  0  1 20.0030000  0  7                     
G25  21568041.270   113340825.806      -12354.056          49.000  
G32  22905700.746   120370273.244      -11423.691          49.000  
G10  21091648.029   110837348.647      -12706.381          49.000  
G12  23523768.742   123618222.849      -14479.711          48.000  
G26  25485423.836   133926799.865       -9045.249          44.000  
G22  23858112.096   125375216.642      -11343.754          48.000  
G21  26687790.843   140245280.446      -12089.901          44.000  
> 2022  2 14  0  1 21.0030000  0  7                     
G25  21570392.166   113353180.696      -12354.612          49.000  
G32  22907874.685   120381697.332      -11423.532          49.000  
G10  21094066.151   110850055.845      -12706.852          49.000  
G12  23526524.379   123632703.343      -14480.226          48.000  
G26  25487145.156   133935845.706       -9045.291          44.000  
G22  23860270.839   125386560.782      -11343.523          48.000  
G21  26690091.689   140257370.942      -12090.152          44.000  
> 2022  2 14  0  1 22.0030000  0  7                     
G25  21572742.718   113365535.106      -12357.528          49.000  
G32  22910048.371   120393120.261      -11425.729          49.000  
G10  21096484.209   110862762.543      -12709.832          49.000  
G12  23529279.919   123647183.261      -14482.951          48.000  
G26  25488866.328   133944890.339       -9047.416          44.000  
G22  23862429.389   125397903.697      -11345.655          48.000  
G21  26692392.379   140269460.656      -12092.665          44.000  
> 2022  2 14  0  1 23.0030000  0  7                     
G25  21575094.879   113377893.192      -12358.942          49.000  
G32  22912222.410   120404546.186      -11426.395          49.000  
G10  21098902.922   110875472.846      -12711.129          49.000  
G12  23532036.173   123661666.772      -14484.306          48.000  
G26  25490588.070   133953937.949       -9048.150          44.000  
G22  23864588.469   125409249.544      -11346.287          48.000  
G21  26694693.583   140281553.753      -12093.812          44.000  
> 2022  2 14  0  1 24.0030000  0  7                     
G25  21577447.758   113390251.452      -12359.650          49.000  
G32  22914396.379   120415971.620      -11426.582          49.000  
G10  21101321.675   110888183.299      -12711.837          49.000  
G12  23534792.410   123676150.374      -14484.996          48.000  
G26  25492309.701   133962985.015       -9048.013          44.000  
G22  23866747.440   125420594.824      -11346.396          48.000  
G21  26696994.816   140293646.720      -12094.050          44.000  
> 2022  2 14  0  1 25.0030000  0  7                     
G25  21579798.931   113402610.895      -12359.100          49.000  
G32  22916570.620   120427397.544      -11425.202          49.000  
G10  21103740.647   110900894.902      -12711.231          49.000  
G12  23537548.867   123690635.062      -14484.270          48.000  
G26  25494031.417   133972032.545       -9046.706          44.000  
G22  23868906.521   125431940.534      -11345.006          48.000  
G21  26699296.209   140305740.579      -12093.454          44.000  
> 2022  2 14  0  1 26.0030000  0  7                     
G25  21582150.389   113414970.307      -12358.835          49.000  
G32  22918744.800   120438822.768      -11424.387          49.000  
G10  21106159.585   110913606.424      -12710.894          49.000  
G12  23540305.292   123705119.642      -14484.011          48.000  
G26  25495752.991   133981079.344       -9045.946          44.000  
G22  23871065.412   125443285.472      -11344.090          48.000  
G21  26701597.590   140317834.102      -12092.959          44.000  
> 2022  2 14  0  1 27.0030000  0  7                     
G25  21584501.683   113427329.432      -12357.997          49.000  
G32  22920918.702   120450247.027      -11422.873          49.000  
G10  21108578.482   110926317.617      -12709.981          49.000  
G12  23543061.590   123719603.844      -14483.113          48.000  
G26  25497474.435   133990125.139       -9044.376          44.000  
G22  23873224.157   125454629.374      -11342.518          48.000  
G21  26703898.907   140329927.031      -12091.598          44.000  
> 2022  2 14  0  1 28.0030000  0  7                     
G25  21586853.453   113439687.053      -12356.927          49.000  
G32  22923092.116   120461669.099      -11421.066          49.000  
G10  21110997.086   110939027.297      -12709.445          49.000  
G12  23545817.578   123734086.448      -14481.878          48.000  
G26  25499195.369   133999168.718       -9042.611          45.000  
G22  23875382.379   125465971.028      -11340.677          48.000  
G21  26706199.786   140342018.173      -12090.310          44.000  
> 2022  2 14  0  1 29.0030000  0  7                     
G25  21589204.753   113452044.755      -12356.586          49.000  
G32  22925265.563   120473090.574      -11420.090          49.000  
G10  21113415.717   110951736.985      -12708.579          49.000  
G12  23548573.625   123748569.047      -14481.508          48.000  
G26  25500916.260   134008211.657       -9041.496          45.000  
G22  23877540.555   125477312.010      -11339.528          48.000  
G21  26708500.659   140354109.084      -12089.527          44.000  
> 2022  2 14  0  1 30.0030000  0  6                     
G25  21591556.210   113464402.803      -12356.610          49.000  
G32  22927438.842   120484511.718      -11419.377          49.000  
G10  21115834.397   110964447.007      -12708.766          49.000  
G12  23551329.667   123763051.902      -14481.345          48.000  
G22  23879698.597   125488652.595      -11338.804          48.000  
G21  26710801.542   140366200.048      -12089.397          44.000  
> 2022  2 14  0  1 31.0030000  0  6                     
G25  21593907.645   113476760.309      -12359.942          49.000  
G32  22929612.115   120495931.642      -11422.011          49.000  
G10  21118252.954   110977156.433      -12711.771          49.000  
G12  23554085.651   123777534.132      -14484.663          48.000  
G22  23881856.452   125499991.900      -11341.535          48.000  
G21  26713102.221   140378290.168      -12092.276          44.000  
> 2022  2 14  0  1 32.0030000  0  6                     
G25  21596259.631   113489121.440      -12360.139          49.000  
G32  22931785.849   120507354.513      -11421.590          49.000  
G10  21120672.212   110989869.446      -12711.844          49.000  
G12  23556842.269   123792019.896      -14484.748          48.000  
G22  23884014.834   125511334.071      -11340.868          48.000  
G21  26715403.528   140390383.621      -12092.407          44.000  
> 2022  2 14  0  1 33.0030000  0  6                     
G25  21598611.596   113501479.684      -12359.570          49.000  
G32  22933958.793   120518773.824      -11420.346          49.000  
G10  21123090.905   111002579.525      -12710.944          49.000  
G12  23559598.334   123806502.689      -14484.156          48.000  
G22  23886172.483   125522672.616      -11339.545          48.000  
G21  26717704.321   140402473.886      -12091.573          44.000  
> 2022  2 14  0  1 34.0030000  0  6                     
G25  21600963.763   113513840.595      -12359.973          49.000  
G32  22936132.166   120530195.113      -11420.015          49.000  
G10  21125510.094   111015292.251      -12711.733          49.000  
G12  23562354.893   123820988.049      -14484.317          48.000  
G22  23888330.548   125534013.076      -11339.139          48.000  
G21  26720005.490   140414566.507      -12091.507          44.000  
> 2022  2 14  0  1 35.0030000  0  6                     
G25  21603315.025   113526199.586      -12352.142          49.000  
G32  22938305.324   120541613.808      -11411.383          49.000  
G10  21127928.905   111028003.032      -12704.505          49.000  
G12  23565110.974   123835471.409      -14476.399          48.000  
G22  23890488.052   125545350.877      -11330.520          48.000  
G21  26722306.181   140426656.912      -12083.232          44.000  
> 2022  2 14  0  1 36.0030000  0  6                     
G25  21605667.437   113538560.256      -12361.236          49.000  
G32  22940478.377   120553033.507      -11419.812          49.000  
G10  21130348.045   111040715.408      -12713.171          49.000  
G12  23567867.389   123849956.358      -14485.469          48.000  
G22  23892645.806   125556689.602      -11338.835          48.000  
G21  26724607.180   140438748.703      -12092.046          44.000  
> 2022  2 14  0  1 37.0030000  0  6                     
G25  21608020.046   113550920.569      -12360.059          49.000  
G32  22942651.336   120564452.181      -11418.277          49.000  
G10  21132767.088   111053427.402      -12711.556          49.000  
G12  23570623.841   123864440.864      -14484.308          48.000  
G22  23894803.338   125568027.238      -11337.114          48.000  
G21  26726908.052   140450839.844      -12090.755          44.000  
> 2022  2 14  0  1 38.0030000  0  7                     
G25  21610372.862   113563281.734      -12361.646          49.000  
G32  22944824.345   120575871.008      -11418.806          49.000  
G26  25516398.645   134089579.7803      -9039.934          45.000  
G10  21135186.299   111066140.240      -12713.587          50.000  
G12  23573380.372   123878926.130      -14485.602          48.000  
G22  23896960.925   125579364.965      -11337.728          48.000  
G21  26729209.095   140462931.523      -12091.863          44.000  
> 2022  2 14  0  1 39.0030000  0  6                     
G25  21612724.884   113575642.930      -12359.094          49.000  
G32  22946997.036   120587289.197      -11415.682          49.000  
G10  21137605.513   111078853.034      -12710.372          49.000  
G12  23576136.834   123893411.337      -14483.083          48.000  
G22  23899118.332   125590701.983      -11334.547          48.000  
G21  26731510.079   140475022.941      -12089.181          44.000  
> 2022  2 14  0  1 40.0030000  0  7                     
G25  21615077.006   113588002.846      -12359.918          49.000  
G32  22949169.412   120598705.436      -11416.013          49.000  
G10  21140024.476   111091564.520      -12711.234          49.000  
G12  23578893.061   123907895.182      -14483.863          48.000  
G31  22478808.396   118126934.8052     -11187.968          49.000  
G22  23901275.399   125602036.982      -11334.850          48.000  
G21  26733810.703   140487112.791      -12089.853          44.000  
> 2022  2 14  0  1 41.0030000  0  7                     
G25  21617428.447   113600363.601      -12362.244          49.000  
G32  22951341.947   120610121.826      -11417.533          49.000  
G10  21142443.578   111104276.846      -12713.872          49.000  
G12  23581649.391   123922379.765      -14485.986          48.000  
G31  22480931.882   118138123.2322     -11189.741          49.000  
G22  23903432.392   125613372.063      -11336.187          48.000  
G21  26736111.406   140499203.163      -12091.754          44.000  
> 2022  2 14  0  1 42.0030000  0  9                     
G25  21619780.646   113612724.490      -12359.106          49.000  
G32  22953514.480   120621537.676      -11413.683          49.000  
G10  21144862.687   111116989.229      -12710.859          49.000  
G12  23584405.729   123936864.398      -14482.665          48.000  
G18  26061848.851   136955940.0052     -15603.799          44.000  
G31  22483060.838   118149311.5552     -11186.314          49.000  
G22  23905589.305   125624706.532      -11332.187          48.000  
G21  26738412.126   140511293.374      -12088.282          44.000  
G23  22165189.272   116478854.8282     -15059.876          49.000  
> 2022  2 14  0  1 43.0030000  0  9                     
G25  21622133.067   113625084.759      -12361.077          49.000  
G32  22955687.045   120632952.229      -11415.059          49.000  
G10  21147281.686   111129700.925      -12712.000          50.000  
G12  23587161.986   123951348.329      -14484.742          48.000  
G18  26064818.651   136971544.6732     -15605.054          44.000  
G31  22485190.119   118160499.0152     -11188.208          49.000  
G22  23907745.945   125636039.639      -11333.599          48.000  
G21  26740712.622   140523382.669      -12089.975          44.000  
G23  22168056.232   116493915.8832     -15061.921          49.000  
> 2022  2 14  0  1 44.0030000  0  9                     
G25  21624485.335   113637444.534      -12361.042          49.000  
G32  22957859.018   120644365.612      -11414.529          49.000  
G10  21149700.569   111142412.107      -12711.936          50.000  
G12  23589918.112   123965831.671      -14484.646          48.000  
G18  26067787.866   136987147.4041     -15604.250          44.000  
G31  22487319.314   118171685.2341     -11188.195          49.000  
G22  23909902.344   125647371.502      -11332.718          48.000  
G21  26743013.047   140535471.162      -12089.687          44.000  
G23  22170920.447   116508976.254      -15061.938          49.000  
> 2022  2 14  0  1 45.0030000  0  9                     
G25  21626837.543   113649803.639      -12359.180          49.000  
G32  22960030.826   120655777.633      -11411.679          49.000  
G10  21152119.322   111155122.644      -12710.993          49.000  
G12  23592674.007   123980314.248      -14482.572          48.000  
G18  26070756.743   137002749.018      -15601.149          44.000  
G31  22489448.198   118182871.006      -11185.662          49.000  
G22  23912058.478   125658701.951      -11330.162          48.000  
G21  26745313.289   140547558.691      -12087.483          44.000  
G23  22173786.251   116524035.743      -15059.407          49.000  
> 2022  2 14  0  1 46.0030000  0  9                     
G25  21629189.002   113662163.838      -12360.979          49.000  
G32  22962202.855   120667190.077      -11412.886          49.000  
G10  21154538.292   111167834.177      -12712.184          49.000  
G12  23595430.132   123994797.830      -14484.225          48.000  
G18  26073725.724   137018350.784      -15601.963          44.000  
G31  22491577.048   118194057.633      -11187.206          49.000  
G22  23914214.632   125670032.740      -11331.165          48.000  
G21  26747613.675   140559646.999      -12088.862          44.000  
G23  22176653.410   116539096.156      -15061.067          49.000  
> 2022  2 14  0  1 47.0030000  0 10                     
G25  21631541.560   113674523.837      -12361.310          49.000  
G32  22964374.305   120678601.648      -11412.689          49.000  
G26  25531871.849   134170891.9012      -9033.441          45.000  
G10  21156957.212   111180545.469      -12712.336          49.000  
G12  23598186.249   124009281.133      -14484.628          48.000  
G18  26076694.461   137033951.429      -15601.590          44.000  
G31  22493706.048   118205243.821      -11187.428          49.000  
G22  23916370.649   125681362.594      -11330.900          48.000  
G21  26749913.911   140571734.826      -12088.954          44.000  
G23  22179518.838   116554156.191      -15061.438          49.000  
> 2022  2 14  0  1 48.0030000  0  9                     
G25  21633894.009   113686884.214      -12362.402          49.000  
G32  22966545.907   120690012.916      -11412.974          49.000  
G10  21159376.204   111193257.109      -12713.362          49.000  
G12  23600942.448   124023764.719      -14485.634          48.000  
G18  26079663.085   137049551.505      -15601.690          44.000  
G31  22495835.082   118216430.134      -11188.348          49.000  
G22  23918526.660   125692692.072      -11331.187          48.000  
G21  26752214.264   140583822.733      -12089.766          44.000  
G23  22182384.736   116569216.403      -15062.162          49.000  
> 2022  2 14  0  1 49.0030000  0  9                     
G25  21636246.183   113699248.190      -12363.373          49.000  
G32  22968718.020   120701427.101      -11413.254          49.000  
G10  21161795.860   111205972.318      -12714.752          49.000  
G12  23603699.272   124038251.809      -14486.425          48.000  
G18  26082632.220   137065154.240      -15601.673          44.000  
G31  22497964.665   118227619.780      -11188.860          49.000  
G22  23920683.135   125704024.398      -11331.330          48.000  
G21  26754515.192   140595913.940      -12090.607          44.000  
G23  22185251.345   116584280.024      -15062.788          49.000  
> 2022  2 14  0  1 50.0030000  0  9                     
G25  21638598.964   113711611.108      -12363.317          49.000  
G32  22970889.817   120712839.549      -11412.497          49.000  
G10  21164215.306   111218686.426      -12714.605          49.000  
G12  23606455.936   124052737.756      -14486.322          48.000  
G18  26085600.892   137080754.978      -15600.676          44.000  
G31  22500094.013   118238808.130      -11188.609          49.000  
G22  23922839.251   125715354.926      -11330.603          48.000  
G21  26756815.812   140608003.772      -12090.138          44.000  
G23  22188117.564   116599342.412      -15062.665          49.000  
> 2022  2 14  0  1 51.0030000  0  9                     
G25  21640951.715   113723973.101      -12365.095          49.000  
G32  22973061.190   120724250.393      -11413.495          49.000  
G10  21166634.594   111231399.597      -12716.450          49.000  
G12  23609212.315   124067222.680      -14487.950          48.000  
G18  26088569.287   137096353.852      -15601.509          44.000  
G31  22502223.171   118249995.297      -11190.061          49.000  
G22  23924995.088   125726683.778      -11331.578          48.000  
G21  26759116.222   140620092.379      -12091.476          44.000  
G23  22190983.670   116614403.679      -15064.131          49.000  
> 2022  2 14  0  1 52.0030000  0  9                     
G25  21643304.610   113736336.685      -12359.460          49.000  
G32  22975232.766   120735662.171      -11407.495          49.000  
G10  21169054.162   111244114.248      -12710.115          49.000  
G12  23611968.968   124081709.124      -14482.412          48.000  
G18  26091537.818   137111953.391      -15595.119          44.000  
G31  22504352.304   118261183.825      -11184.479          49.000  
G22  23927151.155   125738013.483      -11325.271          48.000  
G21  26761416.848   140632182.290      -12085.500          44.000  
G23  22193850.199   116629466.373      -15058.725          49.000  
> 2022  2 14  0  1 53.0030000  0  9                     
G25  21645657.103   113748699.295      -12368.860          49.000  
G32  22977404.228   120747072.278      -11416.182          49.000  
G10  21171473.551   111256827.936      -12719.499          49.000  
G12  23614725.496   124096194.492      -14491.711          48.000  
G18  26094506.005   137127551.004      -15603.543          44.000  
G31  22506481.283   118272371.112      -11193.604          49.000  
G22  23929306.840   125749341.458      -11333.957          48.000  
G21  26763717.298   140644270.926      -12094.632          44.000  
G23  22196716.310   116644527.881      -15067.855          49.000  
> 2022  2 14  0  1 54.0030000  0  9                     
G25  21648010.133   113761064.962      -12363.178          49.000  
G32  22979575.736   120758484.754      -11409.519          49.000  
G10  21173893.480   111269544.656      -12714.371          49.000  
G12  23617482.521   124110682.816      -14485.700          48.000  
G18  26097474.533   137143150.719      -15596.536          44.000  
G31  22508610.763   118283561.186      -11187.300          49.000  
G22  23931463.014   125760671.737      -11327.297          48.000  
G21  26766018.198   140656362.309      -12088.584          44.000  
G23  22199583.033   116659592.243      -15061.567          49.000  
> 2022  2 14  0  1 55.0030000  0 10                     
G25  21650362.265   113773427.783      -12360.925          49.000  
G32  22981747.102   120769893.721      -11406.688          49.000  
G10  21176312.882   111282258.470      -12711.943          49.000  
G12  23620238.989   124125168.215      -14483.370          48.000  
G18  26100442.344   137158746.675      -15593.573          44.000  
G31  22510739.384   118294748.188      -11184.963          49.000  
G22  23933618.503   125771998.440      -11324.463          48.000  
G21  26768318.488   140668450.559      -12086.171          44.000  
G23  22202449.398   116674653.602      -15059.346          49.000  
G24  25997495.427   136617760.3782     -15842.582          44.000  
> 2022  2 14  0  1 56.0030000  0 10                     
G25  21652714.015   113785789.606      -12364.258          49.000  
G32  22983917.847   120781301.011      -11409.437          49.000  
G10  21178732.103   111294971.256      -12715.074          49.000  
G12  23622995.266   124139652.528      -14486.768          48.000  
G18  26103409.808   137174340.689      -15596.075          44.000  
G31  22512867.897   118305933.940      -11188.124          49.000  
G22  23935773.636   125783323.390      -11327.051          48.000  
G21  26770618.617   140680537.504      -12089.214          44.000  
G23  22205315.260   116689713.768      -15062.566          49.000  
G24  26000510.317   136633603.500      -15845.165          44.000  
> 2022  2 14  0  1 57.0030000  0 10                     
G25  21655066.692   113798152.602      -12363.183          49.000  
G32  22986088.474   120792708.793      -11407.681          49.000  
G10  21181151.511   111307685.159      -12713.492          50.000  
G12  23625751.711   124154137.917      -14485.534          48.000  
G18  26106377.285   137189934.924      -15593.876          44.000  
G31  22514996.621   118317120.607      -11186.722          49.000  
G22  23937928.871   125794648.761      -11325.178          48.000  
G21  26772918.911   140692625.321      -12087.786          44.000  
G23  22208181.318   116704774.912      -15061.299          49.000  
G24  26003525.276   136649446.975      -15843.208          44.000  
> 2022  2 14  0  1 58.0030000  0 10                     
G25  21657419.307   113810515.956      -12367.999          49.000  
G32  22988259.228   120804116.246      -11411.688          49.000  
G10  21183571.002   111320399.379      -12718.599          49.000  
G12  23628508.179   124168623.574      -14490.246          48.000  
G18  26109344.682   137205528.587      -15597.837          44.000  
G31  22517125.671   118328307.378      -11191.240          49.000  
G22  23940084.021   125805973.740      -11329.214          48.000  
G21  26775219.155   140704713.198      -12092.336          44.000  
G23  22211047.268   116719836.216      -15065.763          49.000  
G24  26006540.107   136665289.992      -15847.226          44.000  
> 2022  2 14  0  1 59.0030000  0 10                     
G25  21659772.194   113822880.567      -12360.699          49.000  
G32  22990430.156   120815524.300      -11403.981          49.000  
G10  21185990.700   111333114.841      -12711.204          49.000  
G12  23631264.892   124183110.403      -14482.994          48.000  
G18  26112312.172   137221122.573      -15589.738          44.000  
G31  22519254.628   118339495.168      -11183.919          49.000  
G22  23942239.166   125817299.246      -11321.253          48.000  
G21  26777519.662   140716802.035      -12084.927          44.000  
G23  22213913.749   116734898.620      -15058.612          49.000  
G24  26009554.993   136681133.462      -15839.298          44.000  
> 2022  2 14  0  2  0.0030000  0 10                     
G25  21662125.001   113835245.563      -12365.430          49.000  
G32  22992601.089   120826932.044      -11407.993          49.000  
G10  21188410.470   111345830.637      -12715.732          50.000  
G12  23634021.705   124197597.526      -14487.626          48.000  
G18  26115279.588   137236715.993      -15593.423          44.000  
G31  22521383.607   118350683.088      -11188.389          49.000  
G22  23944394.363   125828624.379      -11325.334          48.000  
G21  26779820.162   140728890.955      -12089.254          44.000  
G23  22216780.364   116749961.202      -15063.079          49.000  
G24  26012569.886   136696976.499      -15843.241          44.000  
> 2022  2 14  0  2  1.0030000  0 10                     
G25  21664478.327   113847610.139      -12365.998          49.000  
G32  22994771.492   120838338.684      -11407.726          49.000  
G10  21190830.152   111358546.004      -12716.757          49.000  
G12  23636778.420   124212084.126      -14487.959          48.000  
G18  26118246.693   137252308.045      -15592.854          44.000  
G31  22523512.559   118361870.318      -11188.479          49.000  
G22  23946549.287   125839948.339      -11324.963          48.000  
G21  26782120.540   140740979.142      -12089.449          44.000  
G23  22219646.391   116765023.158      -15063.181          49.000  
G24  26015584.519   136712818.278      -15842.703          44.000  
> 2022  2 14  0  2  2.0030000  0 10                     
G25  21666832.294   113859977.620      -12364.898          49.000  
G32  22996942.324   120849747.562      -11405.948          49.000  
G10  21193250.373   111371264.194      -12715.504          49.000  
G12  23639535.657   124226573.550      -14486.765          48.000  
G18  26121214.194   137267902.083      -15591.009          44.000  
G31  22525642.323   118373060.225      -11187.251          49.000  
G22  23948704.595   125851274.465      -11323.149          48.000  
G21  26784421.334   140753069.946      -12088.084          44.000  
G23  22222512.770   116780087.854      -15061.980          49.000  
G24  26018599.536   136728662.171      -15840.904          44.000  
> 2022  2 14  0  2  3.0030000  0 10                     
G25  21669186.180   113872343.404      -12365.723          49.000  
G32  22999112.709   120861154.061      -11406.047          49.000  
G10  21195670.255   111383980.673      -12716.561          49.000  
G12  23642292.552   124241061.184      -14487.482          48.000  
G18  26124181.195   137283493.470      -15590.792          44.000  
G31  22527771.790   118384248.172      -11187.707          49.000  
G22  23950859.482   125862598.148      -11323.242          48.000  
G21  26786721.800   140765158.747      -12088.530          44.000  
G23  22225378.640   116795150.657      -15062.520          49.000  
G24  26021614.025   136744503.551      -15840.919          44.000  
> 2022  2 14  0  2  4.0030000  0 10                     
G25  21671538.991   113884708.746      -12363.525          49.000  
G32  23001282.929   120872559.443      -11403.266          49.000  
G10  21198090.045   111396696.650      -12713.737          49.000  
G12  23645049.397   124255548.287      -14485.311          48.000  
G18  26127147.875   137299083.483      -15587.771          44.000  
G31  22529900.843   118395435.432      -11185.409          49.000  
G22  23953014.079   125873920.638      -11320.394          48.000  
G21  26789022.095   140777246.807      -12086.108          44.000  
G23  22228244.766   116810212.841      -15060.428          49.000  
G24  26024628.266   136760343.665      -15838.018          44.000  
> 2022  2 14  0  2  5.0030000  0 10                     
G25  21673892.216   113897074.528      -12364.960          49.000  
G32  23003453.194   120883964.580      -11403.991          49.000  
G10  21200509.917   111409413.059      -12715.697          49.000  
G12  23647806.296   124270035.731      -14486.551          48.000  
G18  26130114.448   137314672.986      -15588.190          44.000  
G31  22532029.922   118406622.867      -11186.438          49.000  
G22  23955168.666   125885242.818      -11321.013          48.000  
G21  26791322.434   140789335.005      -12087.230          44.000  
G23  22231111.015   116825275.253      -15061.394          49.000  
G24  26027642.493   136776183.396      -15838.378          44.000  
> 2022  2 14  0  2  6.0030000  0 10                     
G25  21676244.747   113909440.790      -12366.332          49.000  
G32  23005623.376   120895369.531      -11404.818          49.000  
G10  21202929.882   111422129.865      -12716.433          49.000  
G12  23650563.205   124284523.582      -14488.075          48.000  
G18  26133081.057   137330262.047      -15588.699          44.000  
G31  22534158.985   118417810.553      -11187.685          49.000  
G22  23957323.174   125896564.740      -11321.727          48.000  
G21  26793622.821   140801423.399      -12088.671          44.000  
G23  22233977.444   116840337.977      -15062.730          49.000  
G24  26030656.751   136792022.816      -15839.257          44.000  
> 2022  2 14  0  2  7.0030000  0 10                     
G25  21678597.546   113921806.450      -12363.623          49.000  
G32  23007793.318   120906773.186      -11401.211          49.000  
G10  21205349.728   111434846.114      -12714.979          50.000  
G12  23653319.969   124299010.717      -14485.031          48.000  
G18  26136047.249   137345849.548      -15585.044          44.000  
G31  22536287.984   118428997.368      -11184.626          49.000  
G22  23959477.374   125907885.303      -11318.192          48.000  
G21  26795923.022   140813510.854      -12085.127          44.000  
G23  22236843.310   116855399.898      -15059.731          49.000  
G24  26033670.637   136807860.792      -15835.455          44.000  
> 2022  2 14  0  2  8.0030000  0 11                     
G25  21680949.808   113934171.360      -12365.192          49.000  
G32  23009963.133   120918175.423      -11402.220          49.000  
G26  25567952.009   134360494.3492      -9022.221          45.000  
G10  21207769.423   111447561.482      -12715.328          49.000  
G12  23656076.614   124313497.021      -14486.495          48.000  
G18  26139013.199   137361435.363      -15585.684          44.000  
G31  22538416.633   118440183.189      -11186.032          49.000  
G22  23961631.411   125919204.375      -11319.058          48.000  
G21  26798223.067   140825597.287      -12086.498          44.000  
G23  22239709.553   116870460.891      -15061.297          49.000  
G24  26036684.199   136823697.219      -15836.317          44.000  
> 2022  2 14  0  2  9.0030000  0 10                     
G25  21683302.387   113946539.681      -12369.067          49.000  
G32  23012133.697   120929580.393      -11405.557          49.000  
G10  21210189.772   111460280.232      -12718.791          49.000  
G12  23658833.885   124327986.642      -14490.427          48.000  
G18  26141979.622   137377023.656      -15588.771          44.000  
G31  22540545.580   118451372.175      -11189.831          49.000  
G22  23963785.892   125930526.096      -11322.134          48.000  
G21  26800523.714   140837686.821      -12090.030          44.000  
G23  22242576.830   116885525.097      -15065.112          49.000  
G24  26039698.320   136839536.236      -15839.472          44.000  
> 2022  2 14  0  2 10.0030000  0 10                     
G25  21685655.324   113958906.444      -12366.400          49.000  
G32  23014303.917   120940983.116      -11401.960          49.000  
G10  21212609.802   111472997.435      -12716.657          49.000  
G12  23661590.802   124342474.611      -14487.462          48.000  
G18  26144945.486   137392609.427      -15584.896          44.000  
G31  22542674.324   118462559.329      -11186.586          49.000  
G22  23965939.983   125941845.523      -11318.582          48.000  
G21  26802823.936   140849774.503      -12087.215          44.000  
G23  22245443.324   116900587.547      -15061.882          49.000  
G24  26042711.929   136855372.877      -15835.864          44.000  
> 2022  2 14  0  2 11.0030000  0 10                     
G25  21688008.306   113971272.288      -12365.851          49.000  
G32  23016473.432   120952384.256      -11400.898          49.000  
G10  21215029.644                      -12715.727          51.000  
G12  23664347.576   124356961.581      -14487.034          48.000  
G18  26147911.075   137408193.360      -15583.530          44.000  
G31  22544802.857   118473745.344      -11186.090          49.000  
G22  23968093.780   125953163.289      -11317.442          48.000  
G21  26805123.898   140861860.962      -12086.384          44.000  
G23  22248309.396   116915648.907      -15061.401          49.000  
G24  26045725.209   136871207.790      -15834.642          44.000  
> 2022  2 14  0  2 12.0030000  0 10                     
G25  21690361.964   113983639.303      -12368.475          49.000  
G32  23018643.420   120963785.875      -11402.736          49.000  
G10  21217449.714   111498431.005      -12718.570          49.000  
G12  23667104.591   124371449.615      -14489.496          48.000  
G18  26150876.635   137423777.514      -15585.232          44.000  
G31  22546931.686   118484932.250      -11188.287          49.000  
G22  23970247.547   125964481.470      -11319.312          48.000  
G21  26807424.087   140873948.290      -12088.805          44.000  
G23  22251175.690   116930711.239      -15063.734          49.000  
G24  26048738.599   136887043.052      -15836.398          44.000  
> 2022  2 14  0  2 13.0030000  0 10                     
G25  21692715.098   113996007.008      -12365.814          49.000  
G32  23020813.074   120975187.518      -11399.464          49.000  
G10  21219869.897   111511149.000      -12715.749          49.000  
G12  23669861.718   124385938.259      -14486.724          48.000  
G18  26153842.171   137439361.419      -15581.559          44.000  
G31  22549060.425   118496119.609      -11185.327          49.000  
G22  23972401.367   125975799.599      -11315.871          48.000  
G21  26809724.345   140886036.004      -12085.734          44.000  
G23  22254042.096   116945774.070      -15060.844          49.000  
G24  26051752.058   136902878.194      -15832.906          44.000  
> 2022  2 14  0  2 14.0030000  0 10                     
G25  21695069.158   114008376.039      -12369.006          49.000  
G32  23022982.885   120986589.791      -11401.959          49.000  
G10  21222290.346   111523868.284      -12718.832          49.000  
G12  23672619.082   124400428.127      -14489.881          48.000  
G18  26156807.737   137454945.701      -15583.788          44.000  
G31  22551189.723   118507308.035      -11188.312          49.000  
G22  23974555.325   125987118.290      -11318.289          48.000  
G21  26812024.808   140898124.735      -12088.571          44.000  
G23  22256908.314   116960838.034      -15063.863          49.000  
G24  26054765.434   136918713.839      -15835.321          44.000  
> 2022  2 14  0  2 15.0030000  0 10                     
G25  21697423.729   114020744.279      -12368.200          49.000  
G32  23025152.311   120997990.619      -11400.690          49.000  
G10  21224710.643   111536586.749      -12718.237          49.000  
G12  23675376.254   124414917.121      -14489.029          48.000  
G18  26159773.012   137470528.262      -15582.124          44.000  
G31  22553318.918   118518495.429      -11187.425          49.000  
G22  23976709.003   125998435.465      -11316.940          48.000  
G21  26814325.056   140910212.389      -12087.521          44.000  
G23  22259774.141   116975901.032      -15063.072          49.000  
G24  26057778.530   136934547.882      -15833.750          44.000  
> 2022  2 14  0  2 16.0030000  0 10                     
G25  21699777.549   114033111.074      -12366.235          49.000  
G32  23027321.343   121009389.298      -11397.534          49.000  
G10  21227130.628   111549303.779      -12716.942          50.000  
G12  23678133.113   124429404.565      -14486.682          48.000  
G18  26162737.894   137486108.420      -15578.931          44.000  
G31  22555447.483   118529681.102      -11184.685          49.000  
G22  23978862.173   126009750.433      -11313.882          48.000  
G21  26816624.944   140922298.288      -12085.052          44.000  
G23  22262639.915   116990962.367      -15060.379          49.000  
G24  26060791.261   136950379.649      -15830.543          44.000  
> 2022  2 14  0  2 17.0030000  0 10                     
G25  21702130.632   114045479.605      -12370.281          49.000  
G32  23029490.804   121020789.050      -11401.078          49.000  
G10  21229550.957   111562022.440      -12720.530          49.000  
G12  23680890.351   124443893.666      -14490.771          48.000  
G18  26165702.885   137501689.399      -15582.266          44.000  
G31  22557576.411   118540868.285      -11188.731          49.000  
G22  23981015.545   126021066.394      -11317.297          48.000  
G21  26818925.114   140934385.634      -12089.024          44.000  
G23  22265506.736   117006025.278      -15064.511          49.000  
G24  26063804.219   136966212.351      -15833.970          44.000  
> 2022  2 14  0  2 18.0030000  0 11                     
G25  21704484.436   114057848.695      -12371.240          49.000  
G32  23031659.966   121032188.685      -11401.443          49.000  
G26  25585120.026   134450712.7792      -9021.295          45.000  
G10  21231971.374   111574741.624      -12721.606          49.000  
G12  23683647.650   124458383.232      -14491.679          48.000  
G18  26168667.845   137517269.979      -15582.232          43.000  
G31  22559705.374   118552055.771      -11189.510          49.000  
G22  23983168.940   126032382.170      -11317.466          48.000  
G21  26821225.354   140946473.221      -12089.516          44.000  
G23  22268373.158   117021088.548      -15065.337          49.000  
G24  26066817.089   136982044.797      -15834.129          44.000  
> 2022  2 14  0  2 19.0030000  0 11                     
G25  21706838.572   114070219.169      -12368.981          49.000  
G32  23033829.271   121043589.020      -11398.488          49.000  
G26  25586837.302   134459732.9592      -9018.236          45.000  
G10  21234392.053   111587462.170      -12719.467          49.000  
G12  23686405.128   124472874.084      -14489.336          48.000  
G18  26171632.889   137532851.005      -15579.043          43.000  
G31  22561834.769   118563244.387      -11186.961          49.000  
G22  23985322.485   126043698.576      -11314.535          48.000  
G21  26823525.750   140958561.918      -12087.103          44.000  
G23  22271239.782   117036153.007      -15062.892          49.000  
G24  26069830.020   136997877.809      -15831.119          44.000  
> 2022  2 14  0  2 20.0030000  0 11                     
G25  21709192.845   114082588.966      -12371.393          49.000  
G32  23035998.070   121054988.008      -11400.414          49.000  
G26  25588553.173   134468751.2681      -9020.154          45.000  
G10  21236812.579   111600181.969      -12721.376          49.000  
G12  23689162.517   124487364.172      -14491.678          48.000  
G18  26174597.614   137548430.416      -15580.631          43.000  
G31  22563963.977   118574432.078      -11189.249          49.000  
G22  23987475.694   126055013.564      -11316.254          48.000  
G21  26825825.962   140970649.614      -12089.282          44.000  
G23  22274106.287   117051216.610      -15065.217          49.000  
G24  26072842.702   137013709.329      -15832.870          44.000  
> 2022  2 14  0  2 21.0030000  0 11                     
G25  21711547.078   114094960.565      -12370.685          49.000  
G32  23038167.302   121066388.102      -11398.867          49.000  
G26  25590269.764   134477771.140       -9018.517          45.000  
G10  21239233.457   111612903.581      -12721.021          49.000  
G12  23691920.229   124501855.959      -14490.812          48.000  
